[
	{ 
		"id": "aap-mil-1bw", 
		"name": "Milstein 1 BW", 
		"printer": "Xerox Phaser 5550DN",
		"cents": 10,
		"color": "BW", 
		"dpi": 600,
		"duplex": "Two-sided",
		"lat": 42.4512,
		"lon": -76.4836,
		"location": "central"
	},
	{ 
		"id": "aap-mil-1c", 
		"name": "Milstein 1 C", 
		"printer": "Xerox Phaser 7500DT",
		"cents": 30,
		"color": "Color",
		"dpi": 600, 
		"duplex": "Two-sided",
		"lat": 42.4512,
		"lon": -76.4836,
		"location": "central"
	},
	{ 
		"id": "aap-mil-1pl", 
		"name": "Milstein 1 pl", 
		"printer": "HP Designjet T1300e",
		"cents": 1500,
		"color": "Color", 
		"dpi": 600,
		"duplex": "One-sided",
		"lat": 42.4512,
		"lon": -76.4836,
		"location": "central"
	},
	{ 
		"id": "aap-mil-2bw", 
		"name": "Milstein 2 BW", 
		"printer": "Xerox Phaser 5550DN",
		"cents": 10,
		"color": "BW", 
		"dpi": 600,
		"duplex": "Two-sided",
		"lat": 42.4512,
		"lon": -76.4836,
		"location": "central"
	},
	{ 
		"id": "aap-mil-2c", 
		"name": "Milstein 2 C", 
		"printer": "Xerox Phaser 7500DT",
		"cents": 30,
		"color": "Color",
		"dpi": 600, 
		"duplex": "Two-sided",
		"lat": 42.4512,
		"lon": -76.4836,
		"location": "central"
	},
	{ 
		"id": "aap-mil-2pl", 
		"name": "Milstein 2 PL", 
		"printer": "HP Designjet T1300e",
		"cents": 1500,
		"color": "Color", 
		"dpi": 600,
		"duplex": "One-sided",
		"lat": 42.4512,
		"lon": -76.4836,
		"location": "central"
	},
	{ 
		"id": "aap-mil-3pl", 
		"name": "Milstein 3 pl", 
		"printer": "HP Designjet T1300e",
		"cents": 1500,
		"color": "Color", 
		"dpi": 600,
		"duplex": "One-sided",
		"lat": 42.4512,
		"lon": -76.4836,
		"location": "central"
	},
	{ 
		"id": "aap-mil-4pl", 
		"name": "Milstein 4 pl", 
		"printer": "Oce ColorWave600",
		"cents": 1500,
		"color": "Color", 
		"dpi": 600,
		"duplex": "One-sided",
		"lat": 42.4512,
		"lon": -76.4836,
		"location": "central"
	},
	{ 
		"id": "aap-mil-5pl", 
		"name": "Milstein 5 pl", 
		"printer": "Oce ColorWave600",
		"cents": 1500,
		"color": "Color", 
		"dpi": 600,
		"duplex": "One-sided",
		"lat": 42.4512,
		"lon": -76.4836,
		"location": "central"
	},
	{ 
		"id": "aap-mil-6pl", 
		"name": "Milstein 6 pl", 
		"printer": "HP Designjet T1100pse 44in",
		"cents": 2000,
		"color": "Color", 
		"dpi": 600,
		"duplex": "One-sided",
		"lat": 42.4512,
		"lon": -76.4836,
		"location": "central"
	},
	{ 
		"id": "aap-nyc-1bw", 
		"name": "NYC 1 BW", 
		"printer": "hp LaserJet 9050",
		"cents": 10,
		"color": "BW", 
		"dpi": 600,
		"duplex": "Two-sided",
		"lat": 40.7059,
		"lon": -73.8959,
		"location": "ny"
	},
	{ 
		"id": "aap-nyc-1c", 
		"name": "NYC 1 C", 
		"printer": "Xerox Phaser 7500DT",
		"cents": 30,
		"color": "Color",
		"dpi": 600, 
		"duplex": "Two-sided",
		"lat": 40.7059,
		"lon": -73.8959,
		"location": "ny"
	},
	{ 
		"id": "aap-nyc-1pl", 
		"name": "NYC 1 PL", 
		"printer": "HP Designjet T1100pse 44in",
		"cents": 1500,
		"color": "Color", 
		"dpi": 600,
		"duplex": "One-sided",
		"lat": 40.7059,
		"lon": -73.8959,
		"location": "ny"
	},
	{ 
		"id": "aap-nyc-2pl", 
		"name": "NYC 1 PL2", 
		"printer": "HP Designjet T1100pse 44in",
		"cents": 1500,
		"color": "Color", 
		"dpi": 600,
		"duplex": "One-sided",
		"lat": 40.7059,
		"lon": -73.8959,
		"location": "ny"
	},
	{ 
		"id": "aap-rand-1bw", 
		"name": "Rand 1 BW", 
		"printer": "hp LaserJet 9050",
		"cents": 10,
		"color": "Color",
		"dpi": 600, 
		"duplex": "Two-sided",
		"lat": 42.4512,
		"lon": -76.4829,
		"location": "central"
	},
	{ 
		"id": "aap-rand-1c", 
		"name": "Rand 1 C", 
		"printer": "hp color LaserJet 5550",
		"cents": 30,
		"color": "Color",
		"dpi": 600, 
		"duplex": "Two-sided",
		"lat": 42.4512,
		"lon": -76.4829,
		"location": "central"
	},
	{ 
		"id": "aap-sib-1bw", 
		"name": "Sibley 1 B&W (3rd Floor)", 
		"printer": "Xerox Phaser 5550DN",
		"cents": 10,
		"color": "BW", 
		"dpi": 600,
		"duplex": "Two-sided",
		"lat": 42.4509,
		"lon": -76.4841,
		"location": "central"
	},
	{ 
		"id": "aap-sib-1c", 
		"name": "Sibley 1 C (3rd Floor)", 
		"printer": "Xerox Phaser 7500DT",
		"cents": 30,
		"color": "Color",
		"dpi": 600, 
		"duplex": "Two-sided",
		"lat": 42.4509,
		"lon": -76.4841,
		"location": "central"
	},
	{ 
		"id": "aap-sib-3bw", 
		"name": "Sibley 3 BW (2nd Floor)", 
		"printer": "hp LaserJet 9050",
		"cents": 10,
		"color": "BW", 
		"dpi": 600,
		"duplex": "Two-sided",
		"lat": 42.4509,
		"lon": -76.4841,
		"location": "central"
	},
	{ 
		"id": "aap-sib-3c", 
		"name": "Sibley 3 C (2nd Floor)", 
		"printer": "hp color LaserJet 5550",
		"cents": 30,
		"color": "Color",
		"dpi": 600, 
		"duplex": "Two-sided",
		"lat": 42.4509,
		"lon": -76.4841,
		"location": "central"
	},
	{ 
		"id": "aap-sib-4bw", 
		"name": "Sibley 4 BW (3rd Floor Balcony)", 
		"printer": "hp LaserJet 9050",
		"cents": 10,
		"color": "BW", 
		"dpi": 600,
		"duplex": "Two-sided",
		"lat": 42.4509,
		"lon": -76.4841,
		"location": "central"
	},
	{ 
		"id": "aap-sib-4c", 
		"name": "Sibley 4 C (3rd Floor Balcony)", 
		"printer": "hp color LaserJet 5550",
		"cents": 10,
		"color": "Color",
		"dpi": 600, 
		"duplex": "Two-sided",
		"lat": 42.4509,
		"lon": -76.4841,
		"location": "central"
	},
	{ 
		"id": "aap-tjaden-1bw", 
		"name": "Tjaden 1 bw (2nd Floor)", 
		"printer": "Xerox Phaser 5550DN",
		"cents": 10,
		"color": "BW", 
		"dpi": 600,
		"duplex": "Two-sided",
		"lat": 42.4509,
		"lon": -76.4854,
		"location": "central"
	},
	{ 
		"id": "aap-tjaden-1c", 
		"name": "Tjaden 1 C (2nd Floor)", 
		"printer": "Xerox Phaser 7500DT",
		"cents": 30,
		"color": "Color",
		"dpi": 600, 
		"duplex": "Two-sided",
		"lat": 42.4509,
		"lon": -76.4854,
		"location": "central"
	},
	{ 
		"id": "accel1", 
		"name": "ACCEL 2nd Floor Net-Print 1", 
		"printer": "Xerox Phaser 4510DT",
		"cents": 9,
		"color": "BW",
		"dpi": 600, 
		"duplex": "Two-sided",
		"lat": 42.4447,
		"lon": -76.4840,
		"location": "engineering"
	},
	{ 
		"id": "accel2", 
		"name": "ACCEL 2nd Floor Net-Print 2", 
		"printer": "Xerox Phaser 4510DT",
		"cents": 9,
		"color": "BW",
		"dpi": 600, 
		"duplex": "Two-sided",
		"lat": 42.4447,
		"lon": -76.4840,
		"location": "engineering"
	},
	{ 
		"id": "aem-netprint-1", 
		"name": "Dyson Warren Netprint 1", 
		"printer": "HP LaserJet 600 M601 M602 M603",
		"cents": 9,
		"color": "BW",
		"dpi": 600, 
		"duplex": "Two-sided"
	},
	{ 
		"id": "aep-netprint1", 
		"name": "AEP-NETPRINT-1", 
		"printer": "Xerox Phaser 4510DT",
		"cents": 8,
		"color": "BW",
		"dpi": 600, 
		"duplex": "Two-sided"
	},
	{ 
		"id": "afr-lib1", 
		"name": "AFRICANA Library Net-Print 1", 
		"printer": "HP LaserJet 600 M601 M602 M603",
		"cents": 9,
		"color": "BW",
		"dpi": 600, 
		"duplex": "Two-sided",
		"lat": 42.457392,
		"lon": -76.482214,
		"location": "central"
	},
	{ 
		"id": "annex-lib1", 
		"name": "ANNEX Library Net-Print 1", 
		"printer": "Xerox Phaser 4510DT",
		"cents": 9,
		"color": "BW",
		"dpi": 600, 
		"duplex": "Two-sided"
	},
	{ 
		"id": "appel1", 
		"name": "Appel Commons Net-Print 1", 
		"printer": "HP LaserJet P3010 Series",
		"cents": 9,
		"color": "BW",
		"dpi": 600, 
		"duplex": "Two-sided",
		"lat": 42.4536,
		"lon": -76.4761,
		"location": "north"
	},
	{ 
		"id": "becker-nprint1", 
		"name": "Carl Becker House Net-Print 1", 
		"printer": "HP LaserJet P3010 Series",
		"cents": 9,
		"color": "BW",
		"dpi": 600, 
		"duplex": "Two-sided",
		"lat": 42.4482,
		"lon": -76.4896,
		"location": "west"
	},
	{ 
		"id": "becker-nprint2", 
		"name": "Carl Becker House Net-Print 2", 
		"printer": "Xerox Phaser 4510DT",
		"cents": 9,
		"color": "BW",
		"dpi": 600, 
		"duplex": "Two-sided",
		"lat": 42.4482,
		"lon": -76.4896,
		"location": "west"
	},
	{ 
		"id": "bin-color", 
		"name": "SHA Net-Print Color", 
		"printer": "hp color LaserJet 5550D",
		"cents": 25,
		"color": "Color",
		"dpi": 600, 
		"duplex": "Two-sided"
	},
	{ 
		"id": "bin1", 
		"name": "BIN Net-Print 1", 
		"printer": "HP LaserJet 600 M601 M602 M603",
		"cents": 9,
		"color": "BW",
		"dpi": 600, 
		"duplex": "Two-sided"
	},
	{ 
		"id": "bin2", 
		"name": "BIN Net-Print 2", 
		"printer": "HP LaserJet 600 M601 M602 M603",
		"cents": 9,
		"color": "BW",
		"dpi": 600, 
		"duplex": "Two-sided"
	},
	{ 
		"id": "bin3", 
		"name": "BIN Net-Print 3", 
		"printer": "HP LaserJet 600 M601 M602 M603",
		"cents": 9,
		"color": "BW",
		"dpi": 600, 
		"duplex": "Two-sided"
	},
	{ 
		"id": "catherwood-lnge", 
		"name": "Catherwood lounge", 
		"printer": "HP LaserJet 600 M601 M602 M603",
		"cents": 9,
		"color": "BW",
		"dpi": 600, 
		"duplex": "Two-sided",
		"lat": 42.4472,
		"lon": -76.4810,
		"location": "central"
	},
	{ 
		"id": "catherwood-np1", 
		"name": "Catherwood Net-Print1", 
		"printer": "HP LaserJet 600 M601 M602 M603",
		"cents": 9,
		"color": "BW",
		"dpi": 600, 
		"duplex": "Two-sided",
		"lat": 42.4472,
		"lon": -76.4810,
		"location": "central"
	},
	{ 
		"id": "catherwood-np2", 
		"name": "Catherwood Net-Print2", 
		"printer": "HP LaserJet 600 M601 M602 M603",
		"cents": 9,
		"color": "BW",
		"dpi": 600, 
		"duplex": "Two-sided",
		"lat": 42.4472,
		"lon": -76.4810,
		"location": "central"
	},
	{ 
		"id": "catherwood-np3", 
		"name": "Catherwood Net-Print3", 
		"printer": "HP LaserJet 600 M601 M602 M603",
		"cents": 9,
		"color": "BW",
		"dpi": 600, 
		"duplex": "Two-sided",
		"lat": 42.4472,
		"lon": -76.4810,
		"location": "central"
	},
	{ 
		"id": "catherwood-np4c", 
		"name": "Catherwood Net-Print4 Color", 
		"printer": "HP LaserJet 500 color M551",
		"cents": 25,
		"color": "Color",
		"dpi": 600, 
		"duplex": "Two-sided",
		"lat": 42.4472,
		"lon": -76.4810,
		"location": "central"
	},
	{ 
		"id": "cbe1", 
		"name": "CBE B49 Scheele Lounge ColorQube", 
		"printer": "Xerox ColorQube 8870",
		"cents": 10,
		"color": "Color",
		"dpi": 600, 
		"duplex": "Two-sided"
	},
	{ 
		"id": "cfem-netprint1", 
		"name": "CFEM Net-Print 1", 
		"printer": "HP LaserJet P3010 Series",
		"cents": 9,
		"color": "BW",
		"dpi": 600, 
		"duplex": "Two-sided"
	},
	{ 
		"id": "cfem-netprint2", 
		"name": "CFEM Net-Print 2", 
		"printer": "Xerox Phaser 8560N",
		"cents": 25,
		"color": "Color",
		"dpi": 600, 
		"duplex": "One-sided"
	},
	{ 
		"id": "chem-netprint1", 
		"name": "Chemistry Net-Print 1", 
		"printer": "HP LaserJet P3005",
		"cents": 8,
		"color": "BW",
		"dpi": 600, 
		"duplex": "Two-sided"
	},
	{ 
		"id": "cipa1", 
		"name": "CIPA Net-Print 1", 
		"printer": "Xerox Phaser 4510DT",
		"cents": 10,
		"color": "BW", 
		"dpi": 600,
		"duplex": "Two-sided"
	},
	{ 
		"id": "cisuglab", 
		"name": "CS Undergraduate Computing Lab Net-Print 1", 
		"printer": "HP LaserJet P4515D",
		"cents": 9,
		"color": "BW",
		"dpi": 600, 
		"duplex": "Two-sided",
		"lat": 42.44489,
		"lon": -76.48115
	},
	{ 
		"id": "cit-mann-mac-1", 
		"name": "CIT Mann Mac Lab Net-Print 1", 
		"printer": "HP LaserJet 600 M601 M602 M603",
		"cents": 9,
		"color": "BW",
		"dpi": 600, 
		"duplex": "Two-sided",
		"lat": 42.4488,
		"lon": -76.4763,
		"location": "ag"
	},
	{ 
		"id": "cit-mann-mac-2", 
		"name": "CIT Mann Mac Lab Net-Print 2", 
		"printer": "HP LaserJet 600 M601 M602 M603",
		"cents": 9,
		"color": "BW",
		"dpi": 600, 
		"duplex": "Two-sided",
		"lat": 42.4488,
		"lon": -76.4763,
		"location": "ag"
	},
	{ 
		"id": "cit-mann-mac-3c", 
		"name": "CIT Mann Mac Lab Color Net-Print 3c", 
		"printer": "Xerox Phaser 8560DT",
		"cents": 25,
		"color": "Color",
		"dpi": 600, 
		"duplex": "Two-sided",
		"lat": 42.4488,
		"lon": -76.4763,
		"location": "ag"
	},
	{ 
		"id": "cit-mannlab-1", 
		"name": "CIT MannLab Net-Print 1", 
		"printer": "Xerox Phaser 4510DT",
		"cents": 9,
		"color": "BW",
		"dpi": 600, 
		"duplex": "Two-sided",
		"lat": 42.4488,
		"lon": -76.4763,
		"location": "ag"
	},
	{ 
		"id": "cit-mannlab-2", 
		"name": "CIT MannLab Net-Print 2", 
		"printer": "Xerox Phaser 4510DT",
		"cents": 9,
		"color": "BW",
		"dpi": 600, 
		"duplex": "Two-sided",
		"lat": 42.4488,
		"lon": -76.4763,
		"location": "ag"
	},
	{ 
		"id": "cit-mannlab-3c", 
		"name": "CIT MannLab Net-Print 3c", 
		"printer": "Xerox Phaser 8560DT",
		"cents": 25,
		"color": "Color",
		"dpi": 600, 
		"duplex": "Two-sided",
		"lat": 42.4488,
		"lon": -76.4763,
		"location": "ag"
	},
	{ 
		"id": "ciw1", 
		"name": "CIW Net-Print 1", 
		"printer": "Xerox Phaser 4510DT",
		"cents": 9,
		"color": "BW",
		"dpi": 600, 
		"duplex": "Two-sided"
	},
	{ 
		"id": "ciw2", 
		"name": "CIW Net-Print 2", 
		"printer": "Xerox Phaser 4510DT",
		"cents": 9,
		"color": "BW",
		"dpi": 600, 
		"duplex": "Two-sided"
	},
	{ 
		"id": "cook-nprint1", 
		"name": "Alice Cook House Net-Print1", 
		"printer": "Xerox Phaser 4510DT",
		"cents": 9,
		"color": "BW",
		"dpi": 600, 
		"duplex": "Two-sided",
		"lat": 42.44892,
		"lon": -76.48994,
		"location": "west"
	},
	{ 
		"id": "csmenglab", 
		"name": "CS MEng Lab", 
		"printer": "Xerox ColorQube 8870",
		"cents": 25,
		"color": "Color",
		"dpi": 600, 
		"duplex": "Two-sided",
		"lat": 42.44489,
		"lon": -76.48115
	},
	{ 
		"id": "devsoc-cardi", 
		"name": "Acad Surge B CaRDI", 
		"printer": "HP Color LaserJet CP4525DN",
		"cents": 25,
		"color": "Color",
		"dpi": 600, 
		"duplex": "Two-sided",
		"lat": 42.44807435,
		"lon": -76.47824407
	},
	{ 
		"id": "devsoc-grad", 
		"name": "DevSocGrad HP BW", 
		"printer": "HP LaserJet P3010 Series",
		"cents": 9,
		"color": "BW",
		"dpi": 600, 
		"duplex": "Two-sided"
	},
	{ 
		"id": "devsocgradp4", 
		"name": "Warren DevSoc Grad Net-Print 4", 
		"printer": "Xerox Phaser 4510DT",
		"cents": 9,
		"color": "BW",
		"dpi": 600, 
		"duplex": "Two-sided"
	},
	{ 
		"id": "dss-mps-lab1", 
		"name": "Malott MPS Lab Net-Print 1", 
		"printer": "HP LaserJet 600 M601 M602 M603",
		"cents": 9,
		"color": "BW",
		"dpi": 600, 
		"duplex": "Two-sided",
		"lat": 42.44822477,
		"lon": -76.48017526

	},
	{ 
		"id": "engr-lib1", 
		"name": "ENGINEERING Library Net-Print 1", 
		"printer": "Xerox Phaser 4510DT",
		"cents": 9,
		"color": "BW",
		"dpi": 600, 
		"duplex": "Two-sided",
		"lat": 42.44473342,
		"lon": -76.48423076
	},
	{ 
		"id": "engr-lib2c", 
		"name": "ENGINEERING Library Net-Print 2 Color", 
		"printer": "Xerox ColorQube 8570",
		"cents": 25,
		"color": "Color",
		"dpi": 600, 
		"duplex": "Two-sided",
		"lat": 42.44473342,
		"lon": -76.48423076
	},
	{ 
		"id": "engr-lib3d", 
		"name": "ENGINEERING Library Net-Print 3 Duplex", 
		"printer": "Xerox Phaser 4510DT",
		"cents": 9,
		"color": "BW",
		"dpi": 600, 
		"duplex": "Two-sided",
		"lat": 42.44473342,
		"lon": -76.48423076
	},
	{ 
		"id": "fine-lib1", 
		"name": "FINE Arts Library Net-Print 1", 
		"printer": "HP LaserJet 600 M601 M602 M603",
		"cents": 9,
		"color": "BW",
		"dpi": 600, 
		"duplex": "Two-sided",
		"lat": 42.45264212,
		"lon": -76.48099065
	},
	{ 
		"id": "fine-lib2c", 
		"name": "FINE Arts Library Net-Print 2 Color", 
		"printer": "HP Color LaserJet M651",
		"cents": 25,
		"color": "Color",
		"dpi": 600, 
		"duplex": "Two-sided",
		"lat": 42.45264212,
		"lon": -76.48099065
	},
	{ 
		"id": "gs1", 
		"name": "Goldwin Smith Net-Print 1", 
		"printer": "Xerox Phaser 4510DT",
		"cents": 7,
		"color": "BW",
		"dpi": 600, 
		"duplex": "Two-sided",
		"lat": 42.44911,
		"lon": -76.48351
	},
	{ 
		"id": "gs2", 
		"name": "Goldwin Smith Net-Print 2", 
		"printer": "Xerox Phaser 4510DT",
		"cents": 7,
		"color": "BW",
		"dpi": 600, 
		"duplex": "Two-sided",
		"lat": 42.4492,
		"lon": -76.4835
	},
	{ 
		"id": "gs3", 
		"name": "Goldwin Smith Net-Print 3", 
		"printer": "HP LaserJet P3010 Series",
		"cents": 7,
		"color": "BW",
		"dpi": 600, 
		"duplex": "Two-sided",
		"lat": 42.4491,
		"lon": -76.4837
	},
	{ 
		"id": "he-cad-4214-b1", 
		"name": "HE CAD 4214 BW", 
		"printer": "HP LaserJet 700 M712",
		"cents": 10,
		"color": "BW", 
		"dpi": 600,
		"duplex": "Two-sided",
		"lat": 42.450398,
		"lon": -76.478605
	},
	{ 
		"id": "he-cad-4214-c1", 
		"name": "HE CAD 4214 Color", 
		"printer": "HP Color LaserJet M750",
		"cents": 30,
		"color": "Color",
		"dpi": 600, 
		"duplex": "Two-sided",
		"lat": 42.450398,
		"lon": -76.478605
	},
	{ 
		"id": "he-cad-t16-b1", 
		"name": "HE CAD T16 BW", 
		"printer": "HP LaserJet 5200",
		"cents": 10,
		"color": "BW", 
		"dpi": 600,
		"duplex": "Two-sided",
		"lat": 42.450398,
		"lon": -76.478605
	},
	{ 
		"id": "he-cad-t16-b2", 
		"name": "HE CAD T16 BW Xerox", 
		"printer": "Xerox Phaser 5500N",
		"cents": 10,
		"color": "BW", 
		"dpi": 600,
		"duplex": "One-sided",
		"lat": 42.450398,
		"lon": -76.478605
	},
	{ 
		"id": "he-cad-t16-c1", 
		"name": "HE CAD T16 Color", 
		"printer": "hp color LaserJet 4650",
		"cents": 30,
		"color": "Color",
		"dpi": 600, 
		"duplex": "Two-sided",
		"lat": 42.450398,
		"lon": -76.478605
	},
	{ 
		"id": "he-cad-t16-c2", 
		"name": "HE CAD T16 Color 2", 
		"printer": "HP Color LaserJet M750",
		"cents": 30,
		"color": "Color",
		"dpi": 600, 
		"duplex": "Two-sided",
		"lat": 42.450398,
		"lon": -76.478605
	},
	{ 
		"id": "hollister1", 
		"name": "HOLLISTER Net-Print 1", 
		"printer": "HP LaserJet P3010 Series",
		"cents": 8,
		"color": "BW",
		"dpi": 600, 
		"duplex": "Two-sided",
		"lat": 42.44365668,
		"lon": -76.48489058
	},
	{ 
		"id": "hollister2c", 
		"name": "HOLLISTER Net-Print 2 Color", 
		"printer": "HP Color LaserJet CP4525DN",
		"cents": 25,
		"color": "Color",
		"dpi": 600, 
		"duplex": "Two-sided",
		"lat": 42.44365668,
		"lon": -76.48489058
	},
	{ 
		"id": "house5", 
		"name": "Flora Rose Net-Print 1", 
		"printer": "HP LaserJet P3010 Series",
		"cents": 10,
		"color": "BW", 
		"dpi": 600,
		"duplex": "Two-sided",
		"lat": 42.44792394,
		"lon": -76.48880661
	},
	{ 
		"id": "ilr-lab1", 
		"name": "ILR Net-Print Main Lab", 
		"printer": "HP LaserJet 600 M601 M602 M603",
		"cents": 6,
		"color": "BW",
		"dpi": 600, 
		"duplex": "Two-sided",
		"lat": 42.4467285,
		"lon": -76.48941278,
		"lat": 42.44725101,
		"lon": -76.48121595
	},
	{ 
		"id": "ilr-lab2", 
		"name": "ILR Net-Print Classroom", 
		"printer": "HP LaserJet 600 M601 M602 M603",
		"cents": 6,
		"color": "BW",
		"dpi": 600, 
		"duplex": "Two-sided",
		"lat": 42.44725101,
		"lon": -76.48121595
	},
	{ 
		"id": "keeton-nprint1", 
		"name": "William Keeton House Net-Print 1", 
		"printer": "HP LaserJet P3010 Series",
		"cents": 9,
		"color": "BW",
		"dpi": 600, 
		"duplex": "Two-sided",
		"lat": 42.4467285,
		"lon": -76.48941278
	},
	{ 
		"id": "kroch-lib1", 
		"name": "KROCH Library Asia RR Net-Print 1", 
		"printer": "HP LaserJet 600 M601 M602 M603",
		"cents": 9,
		"color": "BW",
		"dpi": 600, 
		"duplex": "Two-sided",
		"lat": 42.4483399, 
		"lon": -76.483324
	},
	{ 
		"id": "lacolor1", 
		"name": "LANDARCH Net-Print Color 1", 
		"printer": "hp color LaserJet 5500d",
		"cents": 30,
		"color": "Color",
		"dpi": 600, 
		"duplex": "Two-sided",
		"lat": 42.4481908, 
		"lon": -76.4791076
	},
	{ 
		"id": "laplotter1", 
		"name": "LANDARCH Net-Print Plotter 1", 
		"printer": "HP Designjet Z6200 42in",
		"cents": 1000,
		"color": "Color",
		"dpi": 1200, 
		"duplex": "One-sided",
		"lat": 42.4481908, 
		"lon": -76.4791076
	},
	{ 
		"id": "laplotter2", 
		"name": "LANDARCH Net-Print Plotter 2", 
		"printer": "HP Designjet Z6200 42in",
		"cents": 1000,
		"color": "Color",
		"dpi": 1200, 
		"duplex": "One-sided",
		"lat": 42.4482, 
		"lon": -76.4792
	},
	{ 
		"id": "laprinter2", 
		"name": "LANDARCH Net-Print 2", 
		"printer": "HP LaserJet 5200",
		"cents": 10,
		"color": "BW", 
		"dpi": 600,
		"duplex": "One-sided",
		"lat": 42.44819, 
		"lon": -76.47911
	},
	{ 
		"id": "law-lib1", 
		"name": "LAW Library Net-Print 1", 
		"printer": "HP LaserJet 600 M601 M602 M603",
		"cents": 9,
		"color": "BW",
		"dpi": 600, 
		"duplex": "Two-sided"
	},
	{ 
		"id": "lrc1", 
		"name": "Noyes Lodge Net-Print 1", 
		"printer": "HP LaserJet P3005",
		"cents": 9,
		"color": "BW",
		"dpi": 600, 
		"duplex": "Two-sided",
		"lat": 42.446540, 
		"lon": -76.488057
	},
	{ 
		"id": "mann-bsmt-10c", 
		"name": "MANN Basement Net-Print 10 Color Lg", 
		"printer": "Xerox Phaser 7400DN",
		"cents": 60,
		"color": "Color",
		"dpi": 600, 
		"duplex": "Two-sided",
		"lat": 42.4488,
		"lon": -76.4763,
		"location": "ag"
	},
	{ 
		"id": "mann-bsmt-8", 
		"name": "MANN Basement Net-Print 8", 
		"printer": "Xerox Phaser 4510DT",
		"cents": 9,
		"color": "BW",
		"dpi": 600, 
		"duplex": "Two-sided",
		"lat": 42.4488,
		"lon": -76.4763,
		"location": "ag"
	},
	{ 
		"id": "mann-bsmt-9c", 
		"name": "MANN Basement Net-Print 9 Color", 
		"printer": "Xerox Phaser 8560DX",
		"cents": 25,
		"color": "Color",
		"dpi": 600, 
		"duplex": "Two-sided",
		"lat": 42.4488,
		"lon": -76.4763,
		"location": "ag"
	},
	{ 
		"id": "mann1", 
		"name": "MANN Net-Print 1", 
		"printer": "HP LaserJet 600 M601 M602 M603",
		"cents": 9,
		"color": "BW",
		"dpi": 600, 
		"duplex": "Two-sided",
		"lat": 42.4488,
		"lon": -76.4763,
		"location": "ag"
	},
	{ 
		"id": "mann2", 
		"name": "MANN Net-Print 2", 
		"printer": "HP LaserJet 600 M601 M602 M603",
		"cents": 9,
		"color": "BW",
		"dpi": 600, 
		"duplex": "Two-sided",
		"lat": 42.4488,
		"lon": -76.4763,
		"location": "ag"
	},
	{ 
		"id": "mann3", 
		"name": "MANN Net-Print 3", 
		"printer": "HP LaserJet 600 M601 M602 M603",
		"cents": 9,
		"color": "BW",
		"dpi": 600, 
		"duplex": "Two-sided",
		"lat": 42.4488,
		"lon": -76.4763,
		"location": "ag"
	},
	{ 
		"id": "mann4", 
		"name": "MANN Net-Print 4", 
		"printer": "HP LaserJet 600 M601 M602 M603",
		"cents": 9,
		"color": "BW",
		"dpi": 600, 
		"duplex": "Two-sided",
		"lat": 42.4488,
		"lon": -76.4763,
		"location": "ag"
	},
	{ 
		"id": "mann5color", 
		"name": "Mann Net-Print 5 Color", 
		"printer": "HP Color LaserJet CP4525DN",
		"cents": 25,
		"color": "Color",
		"dpi": 600, 
		"duplex": "Two-sided",
		"lat": 42.4488,
		"lon": -76.4763,
		"location": "ag"
	},
	{ 
		"id": "math-lib2", 
		"name": "MATH Library Net-Print 2", 
		"printer": "HP LaserJet 600 M601 M602 M603",
		"cents": 9,
		"color": "BW",
		"dpi": 600, 
		"duplex": "Two-sided",
		"lat": 42.448173, 
		"lon": -76.480216
	},
	{ 
		"id": "math-lib3c", 
		"name": "MATH Library Net-Print 3 Color", 
		"printer": "HP Color LaserJet CP4525DN",
		"cents": 25,
		"color": "Color",
		"dpi": 600, 
		"duplex": "Two-sided",
		"lat": 42.448173, 
		"lon": -76.480216
	},
	{ 
		"id": "mcfaddin1", 
		"name": "MCFADDIN Net-Print 1", 
		"printer": "Xerox Phaser 4500DT",
		"cents": 9,
		"color": "BW",
		"dpi": 600,
		"duplex": "Two-sided",
		"lat": 42.447231, 
		"lon": -76.488018
	},
	{ 
		"id": "mcfaddin2", 
		"name": "MCFADDIN Net-Print 2", 
		"printer": "Xerox Phaser 4510DT",
		"cents": 9,
		"color": "BW",
		"dpi": 600, 
		"duplex": "Two-sided",
		"lat": 42.448173, 
		"lon": -76.480216
	},
	{ 
		"id": "morrison-1", 
		"name": "Morrison 1", 
		"printer": "HP LaserJet P3010 Series",
		"cents": 9,
		"color": "BW",
		"dpi": 600, 
		"duplex": "Two-sided",
		"lat": 42.447030, 
		"lon": -76.469486
	},
	{ 
		"id": "mpslab", 
		"name": "MPS Lab NetPrint", 
		"printer": "HP LaserJet 500 color M551",
		"cents": 25,
		"color": "Color",
		"dpi": 600, 
		"duplex": "Two-sided",
		"lat": 42.448173, 
		"lon": -76.480216
	},
	{ 
		"id": "mseugrad", 
		"name": "MS&E Net-Print", 
		"printer": "Xerox Phaser 4510DT",
		"cents": 8,
		"color": "BW",
		"dpi": 600, 
		"duplex": "Two-sided"
	},
	{ 
		"id": "mth-372", 
		"name": "MTH Computer Lab Room 372", 
		"printer": "HP LaserJet P4515D",
		"cents": 9,
		"color": "BW",
		"dpi": 600, 
		"duplex": "Two-sided",
		"lat": 42.448173, 
		"lon": -76.480216
	},
	{ 
		"id": "mth-373", 
		"name": "MTH Computer Lab Room 373", 
		"printer": "HP LaserJet P4515D",
		"cents": 9,
		"color": "BW",
		"dpi": 600, 
		"duplex": "Two-sided",
		"lat": 42.448173, 
		"lon": -76.480216
	},
	{ 
		"id": "mth-374", 
		"name": "MTH Computer Lab Room 374", 
		"printer": "HP LaserJet P4515D",
		"cents": 9,
		"color": "BW",
		"dpi": 600, 
		"duplex": "Two-sided",
		"lat": 42.448173, 
		"lon": -76.480216
	},
	{ 
		"id": "mth-375", 
		"name": "MTH Computer Lab Room 375", 
		"printer": "HP LaserJet P4515D",
		"cents": 9,
		"color": "BW",
		"dpi": 600, 
		"duplex": "Two-sided",
		"lat": 42.448173, 
		"lon": -76.480216
	},
	{ 
		"id": "mth-color", 
		"name": "MTH Computer Lab Color", 
		"printer": "HP Color LaserJet CP3525",
		"cents": 30,
		"color": "Color",
		"dpi": 600, 
		"duplex": "Two-sided",
		"lat": 42.448173, 
		"lon": -76.480216
	},
	{ 
		"id": "mth-ilj", 
		"name": "ILJ", 
		"printer": "Xerox Phaser 4500DT",
		"cents": 9,
		"color": "BW",
		"dpi": 600, 
		"duplex": "Two-sided"
	},
	{ 
		"id": "mth-jlpp", 
		"name": "Myron Tayler Hall NetPrint JLPP rm 271", 
		"printer": "HP LaserJet 4100 Series",
		"cents": 9,
		"color": "BW",
		"dpi": 600, 
		"duplex": "One-sided"
	},
	{ 
		"id": "mth-lawreview", 
		"name": "Law Review", 
		"printer": "Xerox Phaser 4500DT",
		"cents": 9,
		"color": "BW",
		"dpi": 600, 
		"duplex": "Two-sided"
	},
	{ 
		"id": "mth-mootcourt", 
		"name": "MTH Moot Court", 
		"printer": "HP LaserJet P3010 Series",
		"cents": 9,
		"color": "BW",
		"dpi": 600, 
		"duplex": "Two-sided"
	},
	{ 
		"id": "mth-studentorg", 
		"name": "Myron Taylor Student Org", 
		"printer": "HP LaserJet 4100 Series",
		"cents": 9,
		"color": "BW",
		"dpi": 600, 
		"duplex": "One-sided"
	},
	{ 
		"id": "music-lib1", 
		"name": "MUSIC Library Net-Print 1", 
		"printer": "HP LaserJet 600 M601 M602 M603",
		"cents": 9,
		"color": "BW",
		"dpi": 600, 
		"duplex": "Two-sided",
		"lat": 42.4501851,
		"lon": -76.4835893
	},
	{ 
		"id": "mvr159lounge", 
		"name": "MVR Dean's Lounge Rm 159", 
		"printer": "HP LaserJet 600 M601 M602 M603",
		"cents": 10,
		"color": "BW", 
		"dpi": 600,
		"duplex": "Two-sided",
		"lat": 42.450201,
		"lon": -76.479140
	},
	{ 
		"id": "nytech-netprnt1", 
		"name": "NY Tech Net-Print 1", 
		"printer": "Xerox ColorQube 8870",
		"cents": 10,
		"color": "Color",
		"dpi": 600, 
		"duplex": "Two-sided",
		"location": "ny"
	},
	{ 
		"id": "nytech-netprnt2", 
		"name": "NY Tech Net-Print 2", 
		"printer": "Xerox ColorQube 8570",
		"cents": 10,
		"color": "Color",
		"dpi": 600, 
		"duplex": "Two-sided",
		"location": "ny"
	},
	{ 
		"id": "olin-lib1", 
		"name": "OLIN Library Net-Print 1", 
		"printer": "HP LaserJet 600 M601 M602 M603",
		"cents": 9,
		"color": "BW",
		"dpi": 600, 
		"duplex": "Two-sided",
		"lat": 42.44788,
		"lon": -76.4842
	},
	{ 
		"id": "olin-lib2", 
		"name": "OLIN Library Net-Print 2", 
		"printer": "HP LaserJet 600 M601 M602 M603",
		"cents": 9,
		"color": "BW",
		"dpi": 600, 
		"duplex": "Two-sided",
		"lat": 42.44783,
		"lon": -76.4841
	},
	{ 
		"id": "olin-lib3", 
		"name": "OLIN Library Net-Print 3", 
		"printer": "HP LaserJet 600 M601 M602 M603",
		"cents": 9,
		"color": "BW",
		"dpi": 600, 
		"duplex": "Two-sided",
		"lat": 42.44783,
		"lon": -76.4842
	},
	{ 
		"id": "olin-lib4", 
		"name": "OLIN Library Net-Print 4", 
		"printer": "HP LaserJet 600 M601 M602 M603",
		"cents": 9,
		"color": "BW",
		"dpi": 600, 
		"duplex": "Two-sided",
		"lat": 42.44782,
		"lon": -76.4843
	},
	{ 
		"id": "olin-lib5c", 
		"name": "OLIN Library Net-Print 5 Color", 
		"printer": "HP Color LaserJet CP4525DN",
		"cents": 25,
		"color": "Color",
		"dpi": 600, 
		"duplex": "Two-sided",
		"lat": 42.44788,
		"lon": -76.4842
	},
	{ 
		"id": "olin-lib6", 
		"name": "OLIN Library Media Center Net-Print 6", 
		"printer": "HP LaserJet 600 M601 M602 M603",
		"cents": 9,
		"color": "BW",
		"dpi": 600, 
		"duplex": "Two-sided",
		"lat": 42.44782,
		"lon": -76.4843
	},
	{ 
		"id": "olin-lib7", 
		"name": "OLIN Library Graduate Study Net-Print 7", 
		"printer": "HP LaserJet 600 M601 M602 M603",
		"cents": 9,
		"color": "BW",
		"dpi": 600, 
		"duplex": "Two-sided",
		"lat": 42.44784,
		"lon": -76.4841
	},
	{ 
		"id": "orie-netprint1", 
		"name": "ORIE Net-Print 1 RH471", 
		"printer": "HP LaserJet P3010 Series",
		"cents": 9,
		"color": "BW",
		"dpi": 600, 
		"duplex": "Two-sided"
	},
	{ 
		"id": "orie-netprint2", 
		"name": "ORIE Net-Print 2 RH453", 
		"printer": "hp LaserJet 4240",
		"cents": 9,
		"color": "BW",
		"dpi": 600, 
		"duplex": "One-sided"
	},
	{ 
		"id": "orie-netprint3", 
		"name": "ORIE Net-Print 3 RH421", 
		"printer": "Xerox Phaser 4510N",
		"cents": 9,
		"color": "BW",
		"dpi": 600, 
		"duplex": "One-sided"
	},
	{ 
		"id": "phillips-318-1", 
		"name": "Phillips 318 Net-Print 1", 
		"printer": "Xerox Phaser 4510DT",
		"cents": 9,
		"color": "BW",
		"dpi": 600, 
		"duplex": "Two-sided",
		"lat": 42.44463841,
		"lon": -76.48201525
	},
	{ 
		"id": "phillips-318-2", 
		"name": "Phillips 318 Net-Print 2", 
		"printer": "Xerox Phaser 4510DT",
		"cents": 9,
		"color": "BW",
		"dpi": 600, 
		"duplex": "Two-sided",
		"lat": 42.44463841,
		"lon": -76.48201525
	},
	{ 
		"id": "phillips-318-3c", 
		"name": "Phillips 318 Net-Print 3c", 
		"printer": "Xerox Phaser 8560DT",
		"cents": 25,
		"color": "Color",
		"dpi": 600, 
		"duplex": "Two-sided",
		"lat": 42.44463841,
		"lon": -76.48201525
	},
	{ 
		"id": "physci-lib1", 
		"name": "PHYSCI Library Net-Print 1", 
		"printer": "HP LaserJet 600 M601 M602 M603",
		"cents": 9,
		"color": "BW",
		"dpi": 600, 
		"duplex": "Two-sided",
		"lat": 42.449782,
		"lon": -76.481173
	},
	{ 
		"id": "rhodes163-lp1", 
		"name": "Swanson - HP M551", 
		"printer": "HP LaserJet 500 color M551",
		"cents": 25,
		"color": "Color",
		"dpi": 600, 
		"duplex": "Two-sided",
		"lat": 42.443478,
		"lon": -76.481534
	},
	{ 
		"id": "rhodes163-lp2", 
		"name": "Swanson Phaser 4500", 
		"printer": "Xerox Phaser 4500DT",
		"cents": 9,
		"color": "BW",
		"dpi": 600, 
		"duplex": "Two-sided",
		"lat": 42.443478,
		"lon": -76.481534
	},
	{ 
		"id": "rpcc1", 
		"name": "RPCC Net-Print 1", 
		"printer": "Xerox Phaser 4510DT",
		"cents": 9,
		"color": "BW",
		"dpi": 600, 
		"duplex": "Two-sided",
		"lat": 42.45604596,
		"lon": -76.47765398
	},
	{ 
		"id": "rpcc2", 
		"name": "RPCC Net-Print 2", 
		"printer": "Xerox Phaser 4510DT",
		"cents": 9,
		"color": "BW",
		"dpi": 600, 
		"duplex": "Two-sided",
		"lat": 42.45604596,
		"lon": -76.47768
	},
	{ 
		"id": "rpcc3c", 
		"name": "RPCC Net-Print 3 Color", 
		"printer": "Xerox Phaser 8560DT",
		"cents": 25,
		"color": "Color",
		"dpi": 600, 
		"duplex": "Two-sided",
		"lat": 42.45604596,
		"lon": -76.47765398
	},
	{ 
		"id": "sage-205", 
		"name": "SAGE 205-BW", 
		"printer": "HP LaserJet 600 M601 M602 M603",
		"cents": 8,
		"color": "BW",
		"dpi": 600, 
		"duplex": "Two-sided",
		"lat": 42.4459,
		"lon": -76.4832,
		"location": "central"
	},
	{ 
		"id": "sage-239-bw", 
		"name": "SAGE 239-BW", 
		"printer": "HP LaserJet 600 M601 M602 M603",
		"cents": 8,
		"color": "BW",
		"dpi": 600, 
		"duplex": "Two-sided",
		"lat": 42.4459,
		"lon": -76.4830,
		"location": "central"
	},
	{ 
		"id": "sage-239-color", 
		"name": "SAGE 239-Color", 
		"printer": "HP LaserJet 500 color M551",
		"cents": 25,
		"color": "Color",
		"dpi": 600, 
		"duplex": "Two-sided",
		"lat": 42.4459,
		"lon": -76.4831,
		"location": "central"
	},
	{ 
		"id": "sage-301-bw", 
		"name": "SAGE 301-BW", 
		"printer": "HP LaserJet 600 M601 M602 M603",
		"cents": 8,
		"color": "BW",
		"dpi": 600, 
		"duplex": "Two-sided",
		"lat": 42.4459,
		"lon": -76.4832,
		"location": "central"
	},
	{ 
		"id": "sage-basement-a", 
		"name": "SAGE Basement-A", 
		"printer": "HP LaserJet 600 M601 M602 M603",
		"cents": 8,
		"color": "BW",
		"dpi": 600, 
		"duplex": "Two-sided",
		"lat": 42.4459,
		"lon": -76.4832,
		"location": "central"
	},
	{ 
		"id": "sage-basement-b", 
		"name": "SAGE Basement-B", 
		"printer": "HP LaserJet 600 M601 M602 M603",
		"cents": 8,
		"color": "BW",
		"dpi": 600, 
		"duplex": "Two-sided",
		"lat": 42.4459,
		"lon": -76.4832,
		"location": "central"
	},
	{ 
		"id": "sage-lib1-bw", 
		"name": "SAGE Lib1-BW", 
		"printer": "HP LaserJet 600 M601 M602 M603",
		"cents": 8,
		"color": "BW",
		"dpi": 600, 
		"duplex": "Two-sided",
		"lat": 42.4459,
		"lon": -76.4832,
		"location": "central"
	},
	{ 
		"id": "sage-lib1-color", 
		"name": "SAGE Lib1-Color", 
		"printer": "HP LaserJet 500 color M551",
		"cents": 25,
		"color": "Color",
		"dpi": 600, 
		"duplex": "Two-sided",
		"lat": 42.4459,
		"lon": -76.4832,
		"location": "central"
	},
	{ 
		"id": "sage-lib2-bw", 
		"name": "SAGE Lib2-BW", 
		"printer": "HP LaserJet 600 M601 M602 M603",
		"cents": 8,
		"color": "BW",
		"dpi": 600, 
		"duplex": "Two-sided",
		"lat": 42.4459,
		"lon": -76.4832,
		"location": "central"
	},
	{ 
		"id": "schwartz1", 
		"name": "Schwartz Center Net-Print 1", 
		"printer": "HP LaserJet P3010 Series",
		"cents": 7,
		"color": "BW",
		"dpi": 600, 
		"duplex": "Two-sided"
	},
	{ 
		"id": "sha-grad1", 
		"name": "SHA Net-Print Grad1", 
		"printer": "HP LaserJet 600 M601 M602 M603",
		"cents": 9,
		"color": "BW",
		"dpi": 600, 
		"duplex": "Two-sided"
	},
	{ 
		"id": "sha-mslc-color", 
		"name": "Marriott SLC Color", 
		"printer": "Xerox ColorQube 8870",
		"cents": 25,
		"color": "Color",
		"dpi": 600, 
		"duplex": "Two-sided"
	},
	{ 
		"id": "sha-mslc-front1", 
		"name": "Marriott SLC Front Desk 1", 
		"printer": "HP LaserJet 600 M601 M602 M603",
		"cents": 9,
		"color": "BW",
		"dpi": 600, 
		"duplex": "Two-sided"
	},
	{ 
		"id": "sha-mslc-front2", 
		"name": "Marriott SLC Front Desk 2", 
		"printer": "HP LaserJet 600 M601 M602 M603",
		"cents": 9,
		"color": "BW",
		"dpi": 600, 
		"duplex": "Two-sided"
	},
	{ 
		"id": "sha-mslc-front3", 
		"name": "Marriott SLC Front Desk 3", 
		"printer": "HP LaserJet 600 M601 M602 M603",
		"cents": 9,
		"color": "BW",
		"dpi": 600, 
		"duplex": "Two-sided"
	},
	{ 
		"id": "sha-mslc-lounge", 
		"name": "Marriott SLC Lounge", 
		"printer": "HP LaserJet 600 M601 M602 M603",
		"cents": 9,
		"color": "BW",
		"dpi": 600, 
		"duplex": "Two-sided"
	},
	{ 
		"id": "sha-mslc-quick", 
		"name": "Marriott SLC Quick Print", 
		"printer": "HP LaserJet 600 M601 M602 M603",
		"cents": 9,
		"color": "BW",
		"dpi": 600, 
		"duplex": "Two-sided"
	},
	{ 
		"id": "snee-netprint1", 
		"name": "Snee Hall Net Print 1", 
		"printer": "HP LaserJet P3010 Series",
		"cents": 9,
		"color": "BW",
		"dpi": 600, 
		"duplex": "Two-sided",
		"lat": 42.443650,
		"lon": -76.484896
	},
	{ 
		"id": "stimson1", 
		"name": "STIMSON Net-Print 1", 
		"printer": "Xerox Phaser 4510DT",
		"cents": 9,
		"color": "BW",
		"dpi": 600, 
		"duplex": "Two-sided",
		"lat": 42.447790,
		"lon": -76.483415
	},
	{ 
		"id": "stimson2", 
		"name": "STIMSON Net-Print 2", 
		"printer": "Xerox Phaser 4510DT",
		"cents": 9,
		"color": "BW",
		"dpi": 600, 
		"duplex": "Two-sided",
		"lat": 42.447790,
		"lon": -76.483415
	},
	{ 
		"id": "stimsonres", 
		"name": "STIMSON Net-Print Resume", 
		"printer": "Xerox Phaser 4510DT",
		"cents": 9,
		"color": "BW",
		"dpi": 600, 
		"duplex": "Two-sided",
		"lat": 42.447790,
		"lon": -76.483415
	},
	{ 
		"id": "tatkon1", 
		"name": "TATKON Net-Print 1", 
		"printer": "HP LaserJet 600 M601 M602 M603",
		"cents": 9,
		"color": "BW",
		"dpi": 600, 
		"duplex": "Two-sided",
		"lat": 42.4530,
		"lon": -76.4797,
		"location": "north"

	},
	{ 
		"id": "upson1", 
		"name": "UPSON Net-Print 1", 
		"printer": "HP LaserJet 600 M601 M602 M603",
		"cents": 9,
		"color": "BW",
		"dpi": 600, 
		"duplex": "Two-sided",
		"lat": 42.4440,
		"lon": -76.4825
	},
	{ 
		"id": "upson2", 
		"name": "UPSON Net-Print 2", 
		"printer": "HP LaserJet 600 M601 M602 M603",
		"cents": 9,
		"color": "BW",
		"dpi": 600, 
		"duplex": "Two-sided",
		"lat": 42.4440,
		"lon": -76.4825
	},
	{ 
		"id": "upson265-lp1", 
		"name": "Design Studio - HP4200", 
		"printer": "hp LaserJet 4200",
		"cents": 9,
		"color": "BW",
		"dpi": 600, 
		"duplex": "One-sided",
		"lat": 42.4440,
		"lon": -76.4825
	},
	{ 
		"id": "upson265-lp3", 
		"name": "DSTUDIO - HP800ps", 
		"printer": "HP DesignJet 800PSe",
		"cents": 300,
		"color": "Color",
		"dpi": 1200, 
		"duplex": "One-sided",
		"lat": 42.4440,
		"lon": -76.4825
	},
	{ 
		"id": "upson3c", 
		"name": "UPSON Net-Print 3 Color", 
		"printer": "Xerox Phaser 8560DN",
		"cents": 25,
		"color": "Color",
		"dpi": 600, 
		"duplex": "Two-sided",
		"lat": 42.4440,
		"lon": -76.4825
	},
	{ 
		"id": "upsonres", 
		"name": "N/A", 
		"printer": "Xerox Phaser 4510DT",
		"cents": 9,
		"color": "BW",
		"dpi": 600, 
		"duplex": "Two-sided",
		"lat": 42.4440,
		"lon": -76.4825
	},
	{ 
		"id": "uris-lib1", 
		"name": "URIS Library Net-Print 1", 
		"printer": "HP LaserJet 600 M601 M602 M603",
		"cents": 9,
		"color": "BW",
		"dpi": 600, 
		"duplex": "Two-sided",
		"lat": 42.4478,
		"lon": -76.4852,
		"location": "central"
	},
	{ 
		"id": "uris-lib2c", 
		"name": "URIS Library Net-Print 2 Color", 
		"printer": "HP Color LaserJet M651",
		"cents": 25,
		"color": "Color",
		"dpi": 600, 
		"duplex": "Two-sided",
		"lat": 42.4459,
		"lon": -76.4832,
		"location": "central"
	},
	{ 
		"id": "uris-lib3", 
		"name": "URIS Library Net-Print 3", 
		"printer": "HP LaserJet 600 M601 M602 M603",
		"cents": 9,
		"color": "BW",
		"dpi": 600, 
		"duplex": "Two-sided",
		"lat": 42.4459,
		"lon": -76.4832,
		"location": "central"
	},
	{ 
		"id": "uris-lib5", 
		"name": "URIS Library CLCL Net-Print B&W", 
		"printer": "HP LaserJet 600 M601 M602 M603",
		"cents": 9,
		"color": "BW",
		"dpi": 600, 
		"duplex": "Two-sided",
		"lat": 42.4459,
		"lon": -76.4832,
		"location": "central"
	},
	{ 
		"id": "uris1", 
		"name": "URIS Comp Lab Net-Print 1", 
		"printer": "Xerox Phaser 4510DT",
		"cents": 9,
		"color": "BW",
		"dpi": 600, 
		"duplex": "Two-sided",
		"lat": 42.4459,
		"lon": -76.4832,
		"location": "central"
	},
	{ 
		"id": "uris2", 
		"name": "URIS Comp Lab Net-Print 2", 
		"printer": "Xerox Phaser 4510DT",
		"cents": 9,
		"color": "BW",
		"dpi": 600, 
		"duplex": "Two-sided",
		"lat": 42.4459,
		"lon": -76.4832,
		"location": "central"
	},
	{ 
		"id": "uris3", 
		"name": "URIS Comp Lab Net-Print 3", 
		"printer": "Xerox Phaser 4510DT",
		"cents": 9,
		"color": "BW",
		"dpi": 600, 
		"duplex": "Two-sided",
		"lat": 42.4459,
		"lon": -76.4832,
		"location": "central"
	},
	{ 
		"id": "uris4c", 
		"name": "URIS Comp Lab Net-Print Color", 
		"printer": "Xerox Phaser 8560DT",
		"cents": 25,
		"color": "Color",
		"dpi": 600, 
		"duplex": "Two-sided",
		"lat": 42.4459,
		"lon": -76.4832,
		"location": "central"
	},
	{ 
		"id": "urisres", 
		"name": "N/A", 
		"printer": "Xerox Phaser 4510DT",
		"cents": 9,
		"color": "BW",
		"dpi": 600, 
		"duplex": "Two-sided",
		"lat": 42.4459,
		"lon": -76.4832,
		"location": "central"
	},
	{ 
		"id": "vet-wiswall-bw", 
		"name": "Vet Wiswall Net-Print BW", 
		"printer": "HP LaserJet P3010 Series",
		"cents": 9,
		"color": "BW",
		"dpi": 600, 
		"duplex": "Two-sided",
		"lat": 42.44701,
		"lon": -76.48327
	},
	{ 
		"id": "vet-wiswall-np2", 
		"name": "Vet Wiswall Net Print 2", 
		"printer": "Xerox Phaser 4510N",
		"cents": 9,
		"color": "BW",
		"dpi": 600, 
		"duplex": "One-sided",
		"lat": 42.44701,
		"lon": -76.48327
	},
	{ 
		"id": "vetlib1", 
		"name": "Vet Lib Net-Print 1", 
		"printer": "Xerox Phaser 4510DT",
		"cents": 9,
		"color": "BW",
		"dpi": 600, 
		"duplex": "Two-sided",
		"lat": 42.44701,
		"lon": -76.48327
	},
	{ 
		"id": "vetlib2", 
		"name": "Vet Lib Net-Print 2", 
		"printer": "Xerox Phaser 4510DT",
		"cents": 9,
		"color": "BW",
		"dpi": 600, 
		"duplex": "Two-sided",
		"lat": 42.44701,
		"lon": -76.48327
	},
	{ 
		"id": "vetlib3", 
		"name": "Vet Lib Net-Print 3", 
		"printer": "Xerox Phaser 4510DT",
		"cents": 9,
		"color": "BW",
		"dpi": 600, 
		"duplex": "Two-sided",
		"lat": 42.44701,
		"lon": -76.48327
	},
	{ 
		"id": "vetlib4", 
		"name": "Vet Lib Net-Print 4", 
		"printer": "Xerox ColorQube 8870",
		"cents": 25,
		"color": "Color",
		"dpi": 600, 
		"duplex": "Two-sided",
		"lat": 42.44701,
		"lon": -76.48327
	},
	{ 
		"id": "vetlib5", 
		"name": "Vet Lib Net-Print 5", 
		"printer": "Xerox Phaser 6360DN",
		"cents": 25,
		"color": "Color",
		"dpi": 600, 
		"duplex": "Two-sided",
		"lat": 42.44701,
		"lon": -76.48327
	},
	{ 
		"id": "whitelab", 
		"name": "WHITELAB Net-Print 1", 
		"printer": "Xerox Phaser 4510DT",
		"cents": 6,
		"color": "BW",
		"dpi": 600, 
		"duplex": "Two-sided"
	},
	{ 
		"id": "wsh-cit1", 
		"name": "Willard Straight Net-Print 1", 
		"printer": "Xerox Phaser 4510DT",
		"cents": 9,
		"color": "BW",
		"dpi": 600, 
		"duplex": "Two-sided",
		"lat": 42.4466,
		"lon": -76.4856,
		"location": "central"
	},
	{ 
		"id": "wsh-cit2", 
		"name": "Willard Straight Net-Print 2", 
		"printer": "Xerox Phaser 4510DT",
		"cents": 9,
		"color": "BW",
		"dpi": 600, 
		"duplex": "Two-sided",
		"lat": 42.4466,
		"lon": -76.4856,
		"location": "central"
	},
	{ 
		"id": "wsh-cit3c", 
		"name": "Willard Straight Net-Print 3 Color", 
		"printer": "Xerox Phaser 8560DT",
		"cents": 25,
		"color": "Color",
		"dpi": 600, 
		"duplex": "Two-sided",
		"lat": 42.4466,
		"lon": -76.4856,
		"location": "central"
	},
	{ 
		"id": "wsh1", 
		"name": "WSH Browsing Library 1", 
		"printer": "Xerox Phaser 4510DT",
		"cents": 9,
		"color": "BW",
		"dpi": 600,
		"duplex": "Two-sided",
		"lat": 42.4466,
		"lon": -76.4856,
		"location": "central"
	}
]